City,Lat,Lng,Max Temp,Humidity,Clouds,Wind Speed,Country,Date
Tuktoyaktuk,69.4541,-133.0374,53.15,56,57,12.46,CA,1627077620
Lyman,48.9884,37.8023,61.88,59,0,3.94,UA,1627077621
Stranda,62.3096,6.9358,60.35,91,97,2.01,NO,1627077622
Punta Arenas,-53.15,-70.9167,37.11,86,57,18.03,CL,1627077622
Aklavik,68.2191,-135.0107,63.43,72,75,4.61,CA,1627077544
Rikitea,-23.1203,-134.9692,71.35,60,88,13.35,PF,1627077623
Ushuaia,-54.8,-68.3,37.06,87,40,19.57,AR,1627077480
Palmer,42.1584,-72.3287,77.63,68,75,2.98,US,1627077624
Mataura,-46.1927,168.8643,45.48,78,45,2.95,NZ,1627077625
Portland,45.5234,-122.6762,86.56,27,0,1.99,US,1627077504
Vaini,-21.2,-175.2,75.92,84,12,9.13,TO,1627077626
Blackwater,-23.5833,148.8833,60.73,48,0,8.95,AU,1627077627
Saskylakh,71.9167,114.0833,55.62,75,98,16.35,RU,1627077627
Provideniya,64.3833,-173.3,53.82,62,56,7.9,RU,1627077554
Bambous Virieux,-20.3428,57.7575,68.25,83,75,5.75,MU,1627077571
Acapulco de Juárez,16.8634,-99.8901,87.49,70,98,8.12,MX,1627077628
Busselton,-33.65,115.3333,48.09,64,99,13.24,AU,1627077390
Ribeira Grande,38.5167,-28.7,71.73,94,100,8.3,PT,1627077629
Beringovskiy,63.05,179.3167,53.2,81,100,6.04,RU,1627077589
Tiksi,71.6872,128.8694,43.63,85,97,4.61,RU,1627077404
Bermejo,-32.8833,-68.8,59.99,27,45,9.35,AR,1627077630
Hilo,19.7297,-155.09,91.27,88,90,0.0,US,1627077631
Hobart,-42.8794,147.3294,45.1,86,40,1.99,AU,1627077551
Cayenne,4.9333,-52.3333,83.08,82,0,5.01,GF,1627077604
Fortuna,40.5982,-124.1573,97.48,66,1,3.0,US,1627077489
Prince Rupert,54.3161,-130.3201,60.89,87,90,10.36,CA,1627077412
Fallon,39.4735,-118.7774,97.45,12,4,2.04,US,1627077632
Hwange,-18.3693,26.5019,57.34,24,29,5.79,ZW,1627077633
Butaritari,3.0707,172.7902,83.57,74,43,15.41,KI,1627077634
Barra de Tecoanapa,16.5167,-98.75,88.07,62,78,10.89,MX,1627077634
Chimoio,-19.1164,33.4833,54.86,85,81,7.45,MZ,1627077635
Yulara,-25.2406,130.9889,46.71,58,5,5.99,AU,1627077635
Humberto de Campos,-2.5983,-43.4611,76.15,83,14,5.53,BR,1627077636
Pacific Grove,36.6177,-121.9166,94.28,77,38,1.99,US,1627077636
Faanui,-16.4833,-151.75,78.15,67,10,14.83,PF,1627077544
Jamestown,42.097,-79.2353,78.08,53,9,3.0,US,1627077565
Praia da Vitória,38.7333,-27.0667,71.76,96,99,13.78,PT,1627077637
Nanortalik,60.1432,-45.2371,43.07,85,37,11.05,GL,1627077638
Grindavik,63.8424,-22.4338,54.55,100,90,14.97,IS,1627077638
Atuona,-9.8,-139.0333,77.32,76,40,11.41,PF,1627077639
Kruisfontein,-34.0033,24.7314,44.26,76,36,5.08,ZA,1627077639
Narsaq,60.9167,-46.05,49.82,64,7,3.18,GL,1627077565
East London,-33.0153,27.9116,52.99,66,94,3.67,ZA,1627077640
Port Alfred,-33.5906,26.891,53.26,66,100,4.43,ZA,1627077551
Dikson,73.5069,80.5464,44.65,70,99,15.17,RU,1627077618
Enterprise,36.0252,-115.2419,105.24,24,64,7.0,US,1627077641
Airai,-8.9266,125.4092,56.14,34,22,3.4,TL,1627077641
Taldan,53.6667,124.8,66.02,99,100,1.9,RU,1627077642
Jadu,31.953,12.0261,74.59,41,0,7.96,LY,1627077642
Tevriz,57.509,72.4042,63.36,96,43,4.85,RU,1627077642
Ancud,-41.8697,-73.8203,46.22,77,93,8.08,CL,1627077643
Antalaha,-14.9003,50.2788,67.68,77,21,6.71,MG,1627077643
Luang Prabang,19.8856,102.1347,74.82,100,99,1.77,LA,1627077644
Lavrentiya,65.5833,-171.0,49.87,69,74,8.63,RU,1627077519
Mandalgovi,45.7625,106.2708,64.69,49,75,3.74,MN,1627077644
Menongue,-14.6585,17.691,48.2,27,37,4.76,AO,1627077645
Arlit,18.7369,7.3853,96.96,26,28,7.43,NE,1627077645
Vila Franca do Campo,37.7167,-25.4333,70.21,86,91,5.41,PT,1627077645
Semnan,35.5729,53.3971,84.78,34,0,9.26,IR,1627077646
Dalvik,65.9702,-18.5286,60.22,81,66,8.52,IS,1627077647
Albany,42.6001,-73.9662,77.58,57,55,6.82,US,1627077647
Saint-Philippe,-21.3585,55.7679,67.59,74,27,6.85,RE,1627077406
Mahébourg,-20.4081,57.7,68.29,83,75,5.75,MU,1627077547
Port Elizabeth,-33.918,25.5701,44.89,87,90,4.61,ZA,1627077387
Laiyang,36.9758,120.7136,74.26,80,92,1.95,CN,1627077648
Sambava,-14.2667,50.1667,66.72,87,9,9.35,MG,1627077649
Kirovskiy,45.0917,133.5136,80.87,73,90,3.53,RU,1627077649
Mitsamiouli,-11.3847,43.2844,77.22,68,23,10.18,KM,1627077650
Esperance,-33.8667,121.9,52.02,75,70,24.34,AU,1627077650
Torbay,47.6666,-52.7314,62.76,95,75,4.61,CA,1627077651
Kahului,20.8947,-156.47,85.26,81,35,13.0,US,1627077546
Cherskiy,68.75,161.3,51.51,62,0,7.56,RU,1627077440
Narón,43.5167,-8.1528,65.25,93,22,1.01,ES,1627077372
Coyhaique,-45.5752,-72.0662,43.41,96,55,5.82,CL,1627077388
San Patricio,28.017,-97.5169,94.53,48,0,17.54,US,1627077652
Cidreira,-30.1811,-50.2056,59.81,79,0,8.59,BR,1627077652
Richards Bay,-28.783,32.0377,59.36,63,76,15.95,ZA,1627077653
La Palma,33.8464,-118.0467,104.02,61,1,7.0,US,1627077653
Dingle,10.9995,122.6711,78.35,86,100,13.06,PH,1627077654
Qui Nhon,13.7667,109.2333,82.2,70,100,14.12,VN,1627077609
Touros,-5.1989,-35.4608,77.05,80,4,16.2,BR,1627077654
Coahuayana Viejo,18.7333,-103.6833,90.3,66,92,6.42,MX,1627077655
Upernavik,72.7868,-56.1549,40.28,93,100,6.44,GL,1627077545
São João da Barra,-21.6403,-41.0511,68.34,66,0,9.64,BR,1627077655
Caxito,-8.5785,13.6643,66.96,95,83,1.63,AO,1627077656
Codrington,-38.2667,141.9667,48.31,91,100,24.16,AU,1627077656
Slave Lake,55.2834,-114.769,70.61,41,69,17.22,CA,1627077657
Badarwās,24.9667,77.5667,78.31,87,100,9.98,IN,1627077657
Cape Town,-33.9258,18.4232,50.11,65,0,1.59,ZA,1627077658
Cascais,38.6979,-9.4215,68.47,75,40,4.0,PT,1627077658
Alofi,-19.0595,-169.9187,77.45,82,7,17.09,NU,1627077652
Pevek,69.7008,170.3133,37.69,96,100,2.82,RU,1627077651
Dzerzhinsk,56.2389,43.4631,57.02,93,0,6.71,RU,1627077659
Nipawin,53.3668,-104.0009,80.46,26,51,22.3,CA,1627077660
Bengkulu,-3.8004,102.2655,74.84,85,47,4.63,ID,1627077660
Lapa,-25.7697,-49.7158,54.37,63,0,2.26,BR,1627077660
George Town,5.4112,100.3354,81.9,86,20,1.99,MY,1627077478
Bluff,-46.6,168.3333,45.81,79,75,11.01,NZ,1627077661
San Quintín,30.4833,-115.95,75.72,66,65,10.78,MX,1627077662
Hermanus,-34.4187,19.2345,48.9,76,0,12.19,ZA,1627077652
Sørland,67.667,12.6934,51.93,96,100,12.5,NO,1627077663
Belyy Yar,53.6039,91.3903,62.49,94,0,2.24,RU,1627077663
Hualmay,-11.0964,-77.6139,64.9,79,29,10.58,PE,1627077664
Toledo,39.8333,-4.0,79.3,26,0,11.16,ES,1627077664
Myitkyina,25.3833,97.4,75.09,99,87,0.2,MM,1627077664
Barrow,71.2906,-156.7887,34.81,91,100,14.16,US,1627077564
Vestmannaeyjar,63.4427,-20.2734,53.2,98,100,15.66,IS,1627077665
Machaneng,-23.1862,27.4886,49.05,52,0,10.49,BW,1627077665
Río Gallegos,-51.6226,-69.2181,37.45,81,0,8.05,AR,1627077426
Göksun,38.021,36.4973,68.95,65,0,6.76,TR,1627077666
Emba,48.8264,58.1442,76.53,54,100,9.33,KZ,1627077667
Castro,-24.7911,-50.0119,54.68,77,0,3.31,BR,1627077564
Sidvokodvo,-26.6282,31.4202,45.64,64,0,4.23,SZ,1627077667
Kapaa,22.0752,-159.319,84.18,79,29,4.0,US,1627077668
Misratah,32.3754,15.0925,79.66,74,0,10.58,LY,1627077668
Bredasdorp,-34.5322,20.0403,46.18,85,0,11.16,ZA,1627077669
Port Hardy,50.6996,-127.4199,58.87,87,100,4.14,CA,1627077613
Chodavaram,17.8333,82.95,79.12,80,100,4.21,IN,1627077669
Baykit,61.67,96.37,62.53,83,76,1.36,RU,1627077670
Sur,22.5667,59.5289,90.3,60,51,13.71,OM,1627077594
Kincardine,56.0667,-3.7167,63.39,87,88,4.83,GB,1627077430
Haines Junction,60.7522,-137.5108,68.54,39,27,7.92,CA,1627077670
Otjimbingwe,-22.35,16.1333,55.72,8,0,10.0,NA,1627077671
Ponta do Sol,32.6667,-17.1,72.23,68,2,7.29,PT,1627077611
Bollnäs,61.3482,16.3946,55.38,74,0,3.58,SE,1627077671
Mālpura,26.2833,75.3833,79.07,84,36,5.84,IN,1627077672
Bethel,41.3712,-73.414,81.01,65,69,4.59,US,1627077672
Saint George,37.1041,-113.5841,100.87,27,21,1.99,US,1627077548
Qaanaaq,77.484,-69.3632,43.32,58,20,3.85,GL,1627077411
Byron Bay,-28.65,153.6167,60.87,86,14,7.09,AU,1627077673
Ouro Fino,-22.2831,-46.3692,58.77,39,0,3.74,BR,1627077674
Sola,-13.8833,167.55,79.83,81,85,17.52,VU,1627077674
Mayahi,13.9553,7.6712,80.28,65,92,13.67,NE,1627077675
Itaituba,-4.2761,-55.9836,84.78,43,64,2.51,BR,1627077675
Mount Gambier,-37.8333,140.7667,46.87,91,100,12.75,AU,1627077675
Ambon City,-3.6954,128.1814,77.14,94,40,5.75,ID,1627077676
Kavaratti,10.5669,72.642,81.7,82,93,21.63,IN,1627077601
Paungde,18.4833,95.5,75.85,98,77,5.53,MM,1627077676
Sovetskiy,61.3614,63.5842,49.75,95,56,5.06,RU,1627077677
Amapá,1.0,-52.0,75.61,76,72,2.93,BR,1627077677
Canoinhas,-26.1772,-50.39,54.77,65,0,2.01,BR,1627077678
Gambēla,8.25,34.5833,69.8,97,100,1.25,ET,1627077678
Camacupa,-12.0167,17.4833,55.33,25,100,4.25,AO,1627077678
Moree,-29.4667,149.85,48.31,91,5,9.6,AU,1627077679
Tegul'det,57.3064,88.1667,56.14,87,0,6.2,RU,1627077680
Kysyl-Syr,63.8986,122.7617,66.07,70,100,5.35,RU,1627077680
Lerwick,60.1545,-1.1494,53.6,94,45,9.53,GB,1627077680
Chui,-33.6971,-53.4616,60.21,86,5,4.41,UY,1627077681
Iskateley,67.6803,53.1512,43.88,83,99,4.47,RU,1627077681
Pekalongan,-6.8886,109.6753,77.02,79,8,3.76,ID,1627077682
Ayagoz,47.9714,80.4392,65.16,58,65,6.08,KZ,1627077682
Beidao,34.5686,105.8933,69.37,93,91,3.62,CN,1627077683
Kungurtug,50.5994,97.5228,60.85,80,94,2.59,RU,1627077683
La Asuncion,11.0333,-63.8628,83.93,79,65,12.66,VE,1627077683
Khovd,48.0056,91.6419,67.35,52,22,3.62,MN,1627077651
Sakakah,29.9697,40.2064,88.72,23,0,8.66,SA,1627077684
Tisul',55.7611,88.3122,57.99,85,96,4.25,RU,1627077684
Los Baños,14.1667,121.1833,79.63,87,100,12.77,PH,1627077685
Chokurdakh,70.6333,147.9167,42.3,67,74,13.2,RU,1627077685
Lata,40.1629,-8.3327,63.01,96,46,2.57,PT,1627077434
Arraial do Cabo,-22.9661,-42.0278,69.58,68,0,18.5,BR,1627077686
Ingham,42.6,-84.3833,78.75,82,90,9.22,US,1627077687
Lompoc,34.6391,-120.4579,91.69,63,66,7.0,US,1627077487
Sanmenxia,34.7747,111.1814,72.84,92,99,5.93,CN,1627077584
Tocopilla,-22.092,-70.1979,61.84,73,20,9.08,CL,1627077541
Port Macquarie,-31.4333,152.9167,50.9,76,50,7.92,AU,1627077688
Verāval,20.9,70.3667,82.26,84,98,17.98,IN,1627077688
Carutapera,-1.195,-46.02,75.63,92,18,6.98,BR,1627077689
Greenwood,34.1668,-82.1165,90.99,65,93,1.01,US,1627077538
Buala,-8.145,159.5921,82.74,77,88,6.55,SB,1627077689
Ilulissat,69.2167,-51.1,38.66,95,100,4.92,GL,1627077582
Zhezkazgan,47.8043,67.7144,79.02,30,0,6.38,KZ,1627077471
San Vicente,-26.6167,-54.1333,61.11,54,0,2.82,AR,1627077690
Plettenberg Bay,-34.0527,23.3716,48.96,73,5,7.54,ZA,1627077691
Manadhoo,5.7667,73.3833,82.29,77,93,12.91,MV,1627077691
Betanzos,43.2804,-8.2147,65.32,89,75,8.05,ES,1627077692
Havre-St-Pierre,50.2334,-63.5986,59.36,94,90,8.05,CA,1627077692
Necochea,-38.5473,-58.7368,50.04,88,100,11.59,AR,1627077675
New Norfolk,-42.7826,147.0587,45.75,81,73,1.43,AU,1627077693
Kavieng,-2.5744,150.7967,82.8,78,15,15.21,PG,1627077694
Knysna,-34.0363,23.0471,47.79,77,1,7.07,ZA,1627077694
Eydhafushi,5.1033,73.0708,82.4,77,66,11.54,MV,1627077695
Avera,33.194,-82.5271,91.38,58,89,5.82,US,1627077461
Nyaunglebin,17.95,96.7333,74.95,97,100,4.12,MM,1627077695
Bac Lieu,9.285,105.7244,78.75,86,100,9.82,VN,1627077469
Olinda,-8.0089,-34.8553,73.13,73,40,6.91,BR,1627077696
Salinópolis,-0.6136,-47.3561,77.67,86,52,11.65,BR,1627077696
La Ronge,55.1001,-105.2842,63.9,64,100,18.7,CA,1627077697
Abu Dhabi,24.4667,54.3667,102.31,29,0,5.75,AE,1627077526
Taywarah,33.35,64.4167,58.89,30,34,6.4,AF,1627077697
Marsh Harbour,26.5412,-77.0636,82.71,71,100,0.69,BS,1627077698
Lorengau,-2.0226,147.2712,81.66,81,30,7.47,PG,1627077547
Outlook,51.5001,-107.0513,84.02,15,1,17.94,CA,1627077698
Kita,13.0349,-9.4895,79.45,72,97,5.37,ML,1627077699
Ixtepec,16.5786,-95.1022,89.58,52,10,18.25,MX,1627077699
Luga,58.7372,29.8453,57.38,66,77,4.12,RU,1627077700
Eidfjord,60.4675,7.0719,67.59,74,7,3.42,NO,1627077700
Yangi Marg`ilon,40.4272,71.7189,78.22,27,0,2.01,UZ,1627077701
Fukuechō,32.6881,128.8419,79.74,79,100,12.26,JP,1627077701
Khatanga,71.9667,102.5,52.54,75,19,7.05,RU,1627077550
Estelle,29.8458,-90.1067,95.0,57,20,4.0,US,1627077702
Saint Paul Harbor,57.79,-152.4072,54.91,88,90,13.8,US,1627077702
Nauta,-4.5061,-73.5757,85.39,57,76,2.04,PE,1627077703
Phalombe,-15.8064,35.6507,58.93,88,100,7.7,MW,1627077703
Moramanga,-18.9333,48.2,51.28,99,70,1.39,MG,1627077704
Atherton,53.5237,-2.4935,64.78,75,100,5.99,GB,1627077704
Linhares,-19.3911,-40.0722,64.54,71,11,4.36,BR,1627077424
Clyde River,70.4692,-68.5914,39.43,87,75,23.02,CA,1627077562
Tshane,-24.0196,21.8684,39.58,21,0,7.56,BW,1627077705
Hithadhoo,-0.6,73.0833,82.08,77,100,11.48,MV,1627077540
Yar-Sale,66.8333,70.8333,48.54,93,88,14.88,RU,1627077457
Bandarbeyla,9.4942,50.8122,76.96,80,20,34.09,SO,1627077706
Avarua,-21.2078,-159.775,77.05,69,20,8.05,CK,1627077407
Jakar,27.5492,90.7525,56.23,94,41,2.91,BT,1627077707
Iracoubo,5.4802,-53.2011,78.89,87,86,12.41,GF,1627077707
Sikonge,-5.6333,32.7667,66.99,47,76,5.26,TZ,1627077708
Saint-Leu,-21.15,55.2833,67.06,63,4,1.34,RE,1627077708
Salinas,36.6777,-121.6555,94.69,63,1,9.33,US,1627077471
Ubari,26.5921,12.7805,83.34,17,0,10.31,LY,1627077623
Yellowknife,62.456,-114.3525,68.29,77,75,1.99,CA,1627077447
Córdoba,-31.4135,-64.1811,76.05,31,0,5.75,AR,1627077508
Opuwo,-18.0607,13.84,56.26,16,0,8.41,NA,1627077710
Peleduy,59.6289,112.7406,61.16,90,3,1.14,RU,1627077710
São Filipe,14.8961,-24.4956,73.58,76,24,8.79,CV,1627077711
Bajil,15.0584,43.2851,86.02,64,100,6.82,YE,1627077711
Naze,28.3667,129.4833,79.72,89,96,28.54,JP,1627077557
Lagoa,39.05,-27.9833,70.14,95,100,13.89,PT,1627077478
Anūpgarh,29.1911,73.2086,89.38,59,74,8.93,IN,1627077712
Geraldton,-28.7667,114.6,54.12,93,75,5.75,AU,1627077712
Lüderitz,-26.6481,15.1594,65.61,21,0,22.03,NA,1627077695
Shingū,33.7333,135.9833,78.91,80,82,4.99,JP,1627077713
Guerrero Negro,27.9769,-114.0611,81.88,54,21,15.79,MX,1627077713
Mar del Plata,-38.0023,-57.5575,59.02,56,0,1.99,AR,1627077585
Thompson,55.7435,-97.8558,77.13,27,54,16.26,CA,1627077714
Imbituba,-28.24,-48.6703,64.81,84,2,14.27,BR,1627077714
Talas,38.6908,35.5538,61.47,63,20,5.75,TR,1627077715
Collie,-33.3667,116.15,45.99,76,71,6.31,AU,1627077715
Carnarvon,-24.8667,113.6333,59.92,67,75,16.67,AU,1627077715
Sibu,2.3,111.8167,74.05,97,98,1.48,MY,1627077716
Bara,10.3744,10.7288,71.44,96,98,5.23,NG,1627077716
Springbok,-29.6643,17.8865,46.62,22,0,24.45,ZA,1627077717
Sinnamary,5.3833,-52.95,79.77,85,86,12.03,GF,1627077717
Hong Kong,22.2855,114.1577,86.38,89,74,5.99,HK,1627077464
Say,13.1007,2.3689,82.04,67,67,12.88,NE,1627077718
Omboué,-1.5746,9.2618,73.2,76,76,6.04,GA,1627077719
Rawson,-43.3002,-65.1023,49.64,36,4,10.54,AR,1627077570
Srikakulam,18.3,83.9,79.39,85,100,6.2,IN,1627077719
Kenora,49.8167,-94.4337,81.79,74,75,3.44,CA,1627077502
Yumen,40.2833,97.2,79.0,39,25,4.25,CN,1627077594
Son La,21.3167,103.9,69.24,98,95,1.3,VN,1627077720
Comodoro Rivadavia,-45.8667,-67.5,49.06,42,0,13.56,AR,1627077720
Mtambile,-5.3833,39.7,76.01,74,10,19.06,TZ,1627077721
Playa del Carmen,20.6274,-87.0799,89.06,86,99,9.91,MX,1627077721
Rafai,4.95,23.9167,69.66,96,87,2.71,CF,1627077722
Tambura,5.6,27.4667,68.23,95,80,4.79,SS,1627077722
Puruliya,23.3333,86.3667,77.83,92,100,11.56,IN,1627077722
Severo-Kuril'sk,50.6789,156.125,56.16,90,92,7.81,RU,1627077723
Mossamedes,-15.1961,12.1522,65.03,91,13,4.7,AO,1627077723
Bose,45.4612,8.0137,76.59,81,99,5.64,IT,1627077724
Lobito,-12.3481,13.5456,69.55,88,20,4.9,AO,1627077724
Alugan,12.2188,125.4808,81.34,72,100,11.68,PH,1627077724
The Valley,18.217,-63.0578,82.81,81,14,20.62,AI,1627077725
Saint-Joseph,-21.3667,55.6167,66.58,71,15,5.91,RE,1627077725
Suntar,62.1444,117.6319,63.36,75,29,5.99,RU,1627077726
Nabire,-3.3667,135.4833,74.46,93,100,3.69,ID,1627077726
Berlevåg,70.8578,29.0864,44.83,87,100,34.2,NO,1627077700
Berezovyy,51.6667,135.7,78.87,77,75,4.47,RU,1627077727
Qaqortoq,60.7167,-46.0333,55.9,74,3,3.6,GL,1627077728
Tulangan,-7.4935,112.6631,73.33,94,20,3.44,ID,1627077728
Port Moresby,-9.4431,147.1797,76.8,85,68,2.84,PG,1627077729
Trairi,-3.2778,-39.2689,79.03,77,10,12.44,BR,1627077474
Teahupoo,-17.8333,-149.2667,78.76,70,4,10.13,PF,1627077729
Palembang,-2.9167,104.7458,73.67,97,73,3.31,ID,1627077730
Narasapuram,16.45,81.6667,77.45,84,100,11.9,IN,1627077731
Laguna,38.421,-121.4238,107.2,22,1,1.01,US,1627077731
Kaeo,-35.1,173.7833,52.32,98,1,3.24,NZ,1627077732
Burnie,-41.0667,145.9167,52.92,87,100,16.44,AU,1627077732
Esmeraldas,-19.7625,-44.3139,67.06,50,0,7.96,BR,1627077691
Bereda,43.2686,-7.5406,60.55,89,5,5.03,ES,1627077733
Southbridge,42.0751,-72.0334,76.6,59,93,2.13,US,1627077733
Muğla Province,37.2303,28.3557,72.27,45,0,6.24,TR,1627077614
Makat,47.6469,53.3463,72.97,74,80,5.01,KZ,1627077734
Selenginsk,52.0064,106.8647,55.81,93,0,2.24,RU,1627077734
Lebu,-37.6167,-73.65,50.56,82,100,16.62,CL,1627077735
Hauknes,66.2833,14.0667,52.92,93,100,3.98,NO,1627077735
Khuzdar,27.7384,66.6434,82.08,46,93,1.45,PK,1627077736
Middle Island,40.8843,-72.9373,82.26,56,1,1.99,US,1627077736
Paján,-1.5667,-80.4167,82.98,63,43,4.72,EC,1627077736
Dunhua,43.3725,128.2425,71.67,79,100,3.22,CN,1627077737
Onguday,50.75,86.15,56.17,93,63,2.01,RU,1627077737
Nefteyugansk,61.0998,72.6035,61.05,90,90,7.0,RU,1627077738
Huilong,31.8111,121.655,78.98,84,100,21.05,CN,1627077738
Marzuq,14.4,46.4667,68.04,83,100,6.17,YE,1627077739
Isangel,-19.55,169.2667,79.29,77,7,4.61,VU,1627077739
Am Timan,11.0297,20.2827,75.2,76,5,4.32,TD,1627077740
Tasiilaq,65.6145,-37.6368,41.16,99,100,4.5,GL,1627077740
Ugoofaaru,5.6667,73.0,82.35,77,88,12.62,MV,1627077613
Dolores,-36.3132,-57.6792,57.69,74,99,3.13,AR,1627077741
Nisibis,37.0778,41.2178,87.15,19,0,5.55,TR,1627077741
Roebourne,-20.7833,117.1333,68.52,40,6,11.65,AU,1627077742
Boyolangu,-8.1181,111.8935,72.72,86,63,3.67,ID,1627077742
Tigil',57.8,158.6667,59.27,81,100,4.76,RU,1627077742
Mount Isa,-20.7333,139.5,58.77,47,29,6.91,AU,1627077743
Bimbo,4.2567,18.4158,72.21,88,98,3.33,CF,1627077743
Half Moon Bay,37.4636,-122.4286,98.74,57,1,13.8,US,1627077600
Murray Bridge,-35.1167,139.2667,52.12,82,33,21.16,AU,1627077744
Maceió,-9.6658,-35.7353,76.44,73,0,5.75,BR,1627077670
Jiaocheng,24.6774,116.1389,75.99,96,29,2.08,CN,1627077745
Hamilton,39.1834,-84.5333,87.1,55,7,1.99,US,1627077681
Constitución,-35.3333,-72.4167,53.94,81,100,9.01,CL,1627077456
Montague,42.5356,-72.5351,79.29,78,88,3.24,US,1627077746
Ol'ga,43.7444,135.2892,79.25,80,3,0.56,RU,1627077746
Aleksandrov Gay,50.147,48.5704,68.16,49,49,8.12,RU,1627077746
Ocampo,21.65,-101.5,74.28,31,32,8.77,MX,1627077747
São Félix do Xingu,-6.6447,-51.995,79.93,39,10,1.57,BR,1627077747
Talnakh,69.4865,88.3972,60.58,72,100,21.7,RU,1627077484
Naro Moru,-0.1676,37.0213,57.33,84,77,8.32,KE,1627077748
Scarborough,54.2797,-0.4044,62.53,83,72,1.01,GB,1627077748
Kenai,60.5544,-151.2583,60.03,86,100,0.89,US,1627077749
Keminmaa,65.8596,24.8228,47.97,81,0,3.44,FI,1627077749
El Salvador,13.8333,-88.9167,88.05,55,72,2.68,SV,1627077750
Ahipara,-35.1667,173.1667,55.45,75,2,3.4,NZ,1627077750
Saint Anthony,45.0205,-93.218,91.33,51,1,9.22,US,1627077751
Longyan,25.1072,117.0225,73.45,95,30,2.89,CN,1627077751
Kirakira,-10.4544,161.9205,82.81,74,73,4.97,SB,1627077751
Lakes Entrance,-37.8811,147.981,41.18,81,98,6.17,AU,1627077752
Nikolskoye,59.7035,30.7861,60.03,63,95,3.67,RU,1627077523
Pangnirtung,66.1451,-65.7125,48.67,67,99,6.87,CA,1627077656
Zanjān,36.6736,48.4787,69.17,58,0,6.98,IR,1627077753
Svetlaya,46.5389,138.3297,73.13,86,71,0.67,RU,1627077753
Charlestown,-32.95,151.6667,57.94,81,68,3.0,AU,1627077754
Sitka,57.0531,-135.33,57.09,88,75,5.75,US,1627077754
Northam,51.0333,-4.2167,71.65,81,100,16.31,GB,1627077754
Cedar City,37.6775,-113.0619,81.39,44,86,10.27,US,1627077755
Tsabong,-26.0217,22.401,41.97,25,0,9.35,BW,1627077755
Chernyshevskiy,63.0128,112.4714,60.71,69,9,1.97,RU,1627077756
Mt. Pleasant,32.7941,-79.8626,88.3,77,1,1.01,US,1627077756
Talcahuano,-36.7167,-73.1167,54.57,74,100,4.23,CL,1627077757
Cabo San Lucas,22.8909,-109.9124,98.82,64,0,11.07,MX,1627077757
Nizhniy Kuranakh,58.8353,125.4869,63.16,99,100,2.19,RU,1627077758
Samarai,-10.6167,150.6667,80.33,85,70,8.55,PG,1627077663
Labuhan,-6.8844,112.2051,75.69,79,6,8.72,ID,1627077758
Aplahoué,6.9333,1.6833,72.61,84,32,7.67,BJ,1627077759
Gravdal,68.1214,13.5031,51.76,95,100,10.51,NO,1627077759
San Policarpo,12.1791,125.5072,81.66,72,100,12.5,PH,1627077759
Gornopravdinsk,60.05,69.9,56.03,87,66,4.12,RU,1627077760
Broome,42.2506,-75.833,76.69,65,1,3.0,US,1627077531
Bathsheba,13.2167,-59.5167,81.36,80,18,13.65,BB,1627077761
Trincomalee,8.5711,81.2335,81.03,74,100,23.78,LK,1627077529
Karratha,-20.7377,116.8463,68.43,41,7,11.36,AU,1627077761
Kichmengskiy Gorodok,59.9816,45.7854,47.64,96,97,6.73,RU,1627077762
Ambilobe,-13.2,49.05,64.49,84,0,3.62,MG,1627077742
Kommunisticheskiy,61.6789,64.4819,48.92,97,73,5.01,RU,1627077762
Dan Khun Thot,15.2085,101.7714,79.59,79,100,14.18,TH,1627077763
Berbera,10.4396,45.0143,86.32,56,83,13.85,SO,1627077763
Klaksvík,62.2266,-6.589,50.92,91,77,17.2,FO,1627077764
Aksha,50.2814,113.2867,57.85,79,8,5.21,RU,1627077764
Beisfjord,68.3751,17.5988,52.25,98,100,4.14,NO,1627077765
Morro Bay,35.3658,-120.8499,97.74,58,34,8.99,US,1627077765
Sayyan,15.1718,44.3244,59.23,77,100,2.64,YE,1627077765
Gizo Government Station,-8.103,156.8419,82.38,73,48,3.27,SB,1627077766
Salym,60.0625,71.4789,58.19,96,100,5.28,RU,1627077766
Sangar,63.9242,127.4739,66.43,71,100,1.14,RU,1627077767
Zhuhai,22.2769,113.5678,86.11,89,20,3.44,CN,1627077767
Artesia,33.8658,-118.0831,105.39,61,1,7.0,US,1627077646
Chadan,51.2833,91.5833,60.53,92,99,2.44,RU,1627077768
Dunedin,-45.8742,170.5036,52.81,64,25,1.99,NZ,1627077769
Honningsvåg,70.9821,25.9704,45.5,85,100,32.75,NO,1627077769
Gazli,40.1333,63.45,87.21,13,0,9.62,UZ,1627077770
Itarema,-2.9248,-39.9167,78.98,77,13,16.02,BR,1627077770
Gornoye Loo,43.7129,39.6049,69.58,83,2,6.44,RU,1627077770
Eldorado,-23.7869,-54.2836,66.07,64,0,6.82,BR,1627077771
Bahir Dar,11.5936,37.3908,60.51,95,100,4.65,ET,1627077616
Peniche,39.3558,-9.3811,67.62,88,68,9.6,PT,1627077772
Xifeng,42.7372,124.7222,74.39,82,54,3.15,CN,1627077772
Adana Province,36.985,35.2881,81.12,86,20,0.0,TR,1627077684
Moindou,-21.6924,165.677,66.15,75,32,1.5,NC,1627077773
Bonthe,7.5264,-12.505,74.86,95,100,14.74,SL,1627077773
Kudahuvadhoo,2.6708,72.8944,81.39,78,96,7.92,MV,1627077774
Bambari,5.768,20.6757,70.75,95,92,3.89,CF,1627077774
Taku,39.0211,117.6469,76.96,81,10,0.85,CN,1627077775
Coquimbo,-29.9533,-71.3436,52.59,84,19,3.36,CL,1627077775
Qaryat Sulūq,31.6682,20.2521,77.58,65,0,12.26,LY,1627077776
Markova,48.6758,24.4138,58.26,89,55,3.58,UA,1627077777
Terrace Bay,48.7834,-87.1,64.15,77,81,8.9,CA,1627077777
Lelydorp,5.7,-55.2333,79.07,90,100,3.51,SR,1627077778
North Bend,43.4065,-124.2243,88.95,69,0,1.99,US,1627077778
Serebryansk,49.6925,83.2892,60.66,90,73,0.96,KZ,1627077778
College,64.8569,-147.8028,74.28,73,90,3.44,US,1627077584
Aksu,41.1231,80.2644,76.71,51,0,5.28,CN,1627077484
Saldanha,-33.0117,17.9442,50.29,66,0,9.93,ZA,1627077779
Nemuro,43.3236,145.575,62.74,91,93,10.33,JP,1627077770
Padang,-0.9492,100.3543,77.0,83,100,3.65,ID,1627077671
St. George's,12.0564,-61.7485,83.88,79,20,13.8,GD,1627077526
Olovyannaya,50.95,115.5667,59.65,70,2,8.21,RU,1627077780
Tótkomlós,46.4167,20.7333,68.14,48,75,5.86,HU,1627077780
Terra Santa,-2.1042,-56.4869,82.53,53,50,3.24,BR,1627077781
Ayorou,14.7308,0.9174,91.96,44,37,8.72,NE,1627077781
Chivay,-15.6383,-71.6011,51.78,36,93,8.61,PE,1627077782
Presidencia Roque Sáenz Peña,-26.7852,-60.4388,74.84,28,0,7.14,AR,1627077782
Dauriya,49.9333,116.8667,62.82,68,76,7.05,RU,1627077783
Safi,32.2994,-9.2372,71.98,75,77,22.82,MA,1627077783
Portknockie,57.7025,-2.8599,57.85,92,100,5.19,GB,1627077783
Grand Gaube,-20.0064,57.6608,72.63,69,45,15.35,MU,1627077784
Faya,18.3851,42.4509,65.77,65,94,1.92,SA,1627077784
Namatanai,-3.6667,152.4333,81.34,78,50,7.78,PG,1627077785
Luba,3.4568,8.5547,76.37,88,99,6.4,GQ,1627077785
Carauari,-4.8828,-66.8958,84.99,55,90,1.03,BR,1627077743
Atwater,37.3477,-120.6091,104.72,15,1,0.0,US,1627077786
Ostrovnoy,68.0531,39.5131,42.51,95,100,25.61,RU,1627077786
San Rafael del Sur,11.8485,-86.4384,88.97,49,94,13.51,NI,1627077787
Gold Coast,-28.0,153.4333,59.2,95,18,6.91,AU,1627077787
Waingapu,-9.6567,120.2641,70.25,75,0,6.08,ID,1627077787
Caranavi,-15.8167,-67.55,67.69,71,7,2.28,BO,1627077788
Gorin,51.1983,136.6669,78.51,83,71,4.83,RU,1627077788
Bilibino,68.0546,166.4372,59.77,66,81,6.8,RU,1627077789
Dauphin,51.1494,-100.0502,85.33,16,14,14.12,CA,1627077789
Kargasok,59.0556,80.8572,61.77,67,0,6.87,RU,1627077790
Papara,-3.9839,-38.7273,79.2,83,19,4.7,BR,1627077790
Houston,29.7633,-95.3633,98.11,57,20,5.01,US,1627077141
Macieira de Cambra,40.8594,-8.3734,61.2,93,2,3.0,PT,1627077791
Susanville,40.4163,-120.653,94.82,12,1,3.0,US,1627077599
Novikovo,51.1537,37.8879,63.7,66,29,6.13,RU,1627077791
Rūdbār,30.15,62.6,89.67,14,3,3.53,AF,1627077792
Port Lincoln,-34.7333,135.8667,52.83,66,34,23.94,AU,1627077624
Rio Grande,-32.035,-52.0986,60.93,80,2,6.64,BR,1627077614
Mauganj,24.6833,81.8833,81.23,82,97,11.23,IN,1627077793
Beloha,-25.1667,45.05,62.74,68,55,8.1,MG,1627077793
Franklin,39.9667,-83.0166,82.58,62,69,2.04,US,1627077613
Mwinilunga,-11.7358,24.4293,60.04,46,100,4.14,ZM,1627077734
Storforshei,66.4043,14.5233,50.67,99,100,3.65,NO,1627077794
Zhaotong,27.3167,103.7167,62.13,96,100,1.19,CN,1627077794
Abnūb,27.2696,31.1511,86.56,24,0,11.12,EG,1627077795
Kayan,16.9056,96.5631,77.14,89,100,9.22,MM,1627077795
Jiaozuo,35.2397,113.2331,73.27,92,87,3.02,CN,1627077796
Cândido Mendes,-1.4467,-45.7167,75.47,89,26,4.38,BR,1627077796
Katsuura,35.1333,140.3,84.11,80,0,2.59,JP,1627077674
Xining,36.6167,101.7667,61.09,74,25,2.53,CN,1627077797
Barhi,23.9,80.8,79.92,84,99,4.97,IN,1627077797
Puerto Ayora,-0.7393,-90.3518,74.55,81,98,5.99,EC,1627077798
Moerai,-22.4333,-151.3333,71.62,66,100,8.1,PF,1627077798
Shahr-e Bābak,30.1165,55.1186,80.31,29,21,4.34,IR,1627077799
Pokhara,28.2333,83.9833,73.53,92,99,2.39,NP,1627077782
Marmaris,36.855,28.2742,82.38,49,0,6.17,TR,1627077799
Acarí,-15.4311,-74.6158,66.47,73,15,6.13,PE,1627077800
Manzhouli,49.6,117.4333,64.85,65,66,6.93,CN,1627077800
Progreso,21.2833,-89.6667,92.1,71,57,16.75,MX,1627077801
Mareeba,-17.0,145.4333,62.44,97,37,2.33,AU,1627077801
Panjāb,34.388,67.0233,56.34,52,67,1.63,AF,1627077801
Xinyu,27.8043,114.9334,74.59,93,3,4.7,CN,1627077802
Souillac,-20.5167,57.5167,69.4,74,34,8.46,MU,1627077802
Kanniyākumāri,8.0833,77.5667,79.9,78,100,19.66,IN,1627077803
Warman,52.3168,-106.5679,84.85,13,1,25.21,CA,1627077803
Vila,42.0304,-8.1588,54.48,96,5,2.77,PT,1627077555
Katherine,-14.4667,132.2667,59.32,72,7,4.61,AU,1627077805
Kondinskoye,59.6481,67.41,59.34,77,100,0.6,RU,1627077805
Botou,38.0667,116.5667,76.78,82,77,3.04,CN,1627077806
Kumul,42.8,93.45,86.13,41,100,18.19,CN,1627077590
Araguaçu,-12.9306,-49.8264,79.56,36,39,5.3,BR,1627077806
Caravelas,-17.7125,-39.2481,68.38,83,100,7.25,BR,1627077807
Ankazoabo,-22.2833,44.5167,59.74,66,12,17.81,MG,1627077807
Sesheke,-17.4759,24.2968,51.28,31,65,5.23,ZM,1627077808
Angoche,-16.2325,39.9086,73.85,63,53,19.46,MZ,1627077808
Valverde del Camino,37.5751,-6.7543,81.18,31,0,8.32,ES,1627077808
Malanje,-9.5402,16.341,65.66,23,54,3.58,AO,1627077809
Kununurra,-15.7667,128.7333,58.98,88,74,0.0,AU,1627077523
Poço Verde,-10.7083,-38.1833,67.23,89,56,7.25,BR,1627077809
Rognan,67.0953,15.3878,51.94,94,100,2.66,NO,1627077810
Benguela,-12.5763,13.4055,68.74,90,18,3.69,AO,1627077810
Laas,46.6166,10.7002,65.14,78,27,2.17,IT,1627077811
Camocim,-2.9022,-40.8411,79.79,73,15,15.17,BR,1627077811
Ocean City,39.2776,-74.5746,82.65,70,35,7.2,US,1627077812
Raymond,43.9015,-70.4703,73.58,76,82,3.87,US,1627077804
Mayor Pablo Lagerenza,-19.9309,-60.7718,85.59,23,0,6.91,PY,1627077812
Sanger,36.708,-119.556,106.09,18,1,5.75,US,1627077813
Vila Velha,-20.3297,-40.2925,68.92,63,0,3.44,BR,1627077813
Khor,47.8861,134.9464,82.18,67,84,5.17,RU,1627077813
Pisco,-13.7,-76.2167,63.01,82,4,6.73,PE,1627077814
Ust'-Tarka,55.5672,75.705,63.79,63,1,4.5,RU,1627077814
Norman Wells,65.282,-126.8329,61.07,65,93,10.22,CA,1627077815
Rio Pomba,-21.2747,-43.1792,64.74,67,0,2.15,BR,1627077815
Eyl,7.9803,49.8164,78.15,70,36,27.58,SO,1627077676
Meïganga,6.5167,14.3,63.81,98,91,4.16,CM,1627077815
Namie,37.4833,141.0,79.99,81,22,1.05,JP,1627077816
Bon Accord,53.8335,-113.4187,79.88,36,20,16.11,CA,1627077566
Banjarmasin,-3.3244,114.591,73.54,95,99,3.96,ID,1627077691
Barabai,-2.5833,115.3833,73.26,98,97,2.04,ID,1627077817
Kutum,14.2,24.6667,73.6,66,54,10.45,SD,1627077576
Līsakovsk,52.5369,62.4936,69.58,86,100,4.47,KZ,1627077817
Altamira,-3.2033,-52.2064,79.59,53,36,2.66,BR,1627077818
Maniitsoq,65.4167,-52.9,41.31,96,100,22.03,GL,1627077818
Yazd,31.8972,54.3675,90.61,14,2,5.86,IR,1627077819
Kuching,1.55,110.3333,75.42,94,20,0.0,MY,1627077819
Viedma,-40.8135,-62.9967,48.29,51,90,8.57,AR,1627077572
Kaitangata,-46.2817,169.8464,45.93,73,39,3.18,NZ,1627077648
Rudnogorsk,57.2639,103.7519,55.2,89,58,1.07,RU,1627077820
Bam,29.106,58.357,91.99,12,5,6.96,IR,1627077821
Kolda,12.8833,-14.95,77.5,69,41,4.54,SN,1627077821
Iberia,29.9502,-91.7507,91.47,66,1,4.61,US,1627077822
Dunmore Town,25.5,-76.65,82.47,74,94,6.31,BS,1627077822
Ballina,-28.8667,153.5667,58.78,85,6,8.88,AU,1627077823
Isabela,6.7085,121.9711,78.69,89,87,3.69,PH,1627077823
Bitung,1.4451,125.1824,76.05,82,69,14.83,ID,1627077823
Buin,-33.7333,-70.75,62.74,57,2,4.72,CL,1627077824
Saurimo,-9.6608,20.3916,61.65,33,1,6.06,AO,1627077824
Jalu,29.0331,21.5482,81.05,54,0,15.37,LY,1627077825
Itoman,26.1247,127.6694,80.62,94,75,29.93,JP,1627077825
Nuuk,64.1835,-51.7216,45.21,81,90,33.38,GL,1627077826
Gao,16.6362,1.637,92.12,41,36,9.37,ML,1627077703
Yushala,57.0761,64.2601,60.55,80,100,3.91,RU,1627077826
Olafsvik,64.8945,-23.7142,52.14,97,100,11.25,IS,1627077827
Fayetteville,35.0527,-78.8784,88.63,54,1,5.01,US,1627077812
Zuwārah,32.9312,12.082,79.38,70,0,12.12,LY,1627077827
San Mateo del Mar,16.2,-95.0,88.39,60,8,31.0,MX,1627077828
Aborlan,9.4352,118.5492,79.5,78,100,7.18,PH,1627077828
Beyneu,45.3167,55.2,86.79,33,100,6.71,KZ,1627077829
Madimba,-10.4,40.3333,71.35,85,9,11.79,TZ,1627077829
Fare,-16.7,-151.0167,77.88,67,9,13.15,PF,1627077830
Bolobo,-2.1667,16.2333,76.46,46,76,3.15,CD,1627077830
Salalah,17.0151,54.0924,77.4,95,100,11.43,OM,1627077830
Sioux Lookout,50.1001,-91.917,92.35,34,80,9.33,CA,1627077831
Agüimes,27.9054,-15.4461,70.66,68,20,25.32,ES,1627077831
Daru,-9.0763,143.2092,76.87,84,100,8.21,PG,1627077832
Longkou,37.6508,120.3286,76.73,77,94,5.46,CN,1627077832
Vilhena,-12.7406,-60.1458,76.84,38,0,3.76,BR,1627077833
Mgandu,-5.95,34.1333,60.66,55,5,11.25,TZ,1627077833
Lampazos de Naranjo,27.0167,-100.5167,101.39,27,6,10.45,MX,1627077834
Três Passos,-27.4556,-53.9319,62.33,59,0,5.64,BR,1627077766
Gijón,43.5357,-5.6615,64.99,84,4,1.99,ES,1627077666
Lingao,19.9103,109.6859,78.96,86,16,5.97,CN,1627077834
Funadhoo,6.15,73.2667,82.15,77,96,13.56,MV,1627077835
Mykolayivka,47.5414,30.7561,64.24,68,0,6.22,UA,1627077835
Rosetown,51.5501,-108.0014,81.99,17,0,18.14,CA,1627077836
Cockburn Town,21.4612,-71.1419,81.79,83,16,18.45,TC,1627077836
Leh,34.1667,77.5833,63.66,54,17,4.45,IN,1627077837
Mananjary,-21.2167,48.3333,64.54,89,32,3.91,MG,1627077837
West Wendover,40.7391,-114.0733,94.21,23,1,6.91,US,1627077838
Tuatapere,-46.1333,167.6833,45.82,83,54,5.53,NZ,1627077838
Asău,46.4333,26.4,63.75,91,24,3.09,RO,1627077564
Pastavy,55.1168,26.8326,55.9,88,40,6.62,BY,1627077839
San Matías,-16.3667,-58.4,84.65,25,0,5.01,BO,1627077839
Ajdabiya,30.7554,20.2263,79.99,54,0,14.54,LY,1627077839
Thunder Bay,48.4001,-89.3168,76.55,70,58,1.01,CA,1627077613
Camacha,33.0833,-16.3333,70.54,78,20,13.8,PT,1627077840
Zhob,31.3411,69.4481,79.29,49,93,1.03,PK,1627077679
Mazatlán,23.2167,-106.4167,93.02,77,8,5.01,MX,1627077692
Turaif,31.6725,38.6637,77.99,48,0,14.43,SA,1627077696
Kuah,6.3265,99.8432,83.68,74,100,6.13,MY,1627077841
Grand-Lahou,5.1367,-5.0242,74.55,85,27,7.87,CI,1627077841
Sehithwa,-20.4667,22.7167,45.39,21,0,7.11,BW,1627077842
Crossville,35.949,-85.0269,85.93,57,75,1.99,US,1627077843
Aksarka,66.5606,67.7975,45.09,86,48,8.28,RU,1627077843
Flinders,-34.5833,150.8552,51.39,90,96,7.99,AU,1627077843
Kiryat Gat,31.61,34.7642,79.79,100,44,10.2,IL,1627077844
Cravo Norte,6.3017,-70.2041,78.33,83,99,5.64,CO,1627077844
Sibolga,1.7427,98.7792,76.32,81,97,3.51,ID,1627077845
Terråk,65.087,12.3715,51.67,95,100,1.16,NO,1627077845
Daniel Flores,9.3355,-83.6694,74.77,94,100,0.83,CR,1627077846
Samsun Province,41.25,36.3333,72.36,68,40,11.5,TR,1627077846
Avilés,43.5547,-5.9248,64.92,86,20,1.99,ES,1627077563
Adrar,20.5022,-10.0711,94.21,17,15,10.65,MR,1627077847
Domoni,-12.2569,44.5319,75.81,74,3,13.15,KM,1627077847
Winnemucca,40.973,-117.7357,96.85,9,1,8.05,US,1627077848
Oranjestad,12.524,-70.027,80.82,86,6,24.02,AW,1627077651
Brookings,44.3114,-96.7984,91.69,29,82,13.71,US,1627077683
Pangoa,-12.1167,-73.0,77.43,65,12,2.08,PE,1627077849
Betlitsa,54.0095,33.9588,57.99,85,58,3.8,RU,1627077849
Krasnaya Gora,52.9995,31.6023,63.57,69,83,5.19,RU,1627077850
Aragarças,-15.8975,-52.2508,78.28,31,10,5.95,BR,1627077851
Vanimo,-2.6741,141.3028,77.68,88,100,3.56,PG,1627077851
Mitú,1.1983,-70.1733,76.42,97,66,1.77,CO,1627077852
Konstantinovka,49.6167,127.9833,79.07,59,38,13.87,RU,1627077852
Deputatsky,69.3,139.9,55.51,61,78,4.79,RU,1627077853
Tongliao,43.6125,122.2653,75.78,69,50,13.15,CN,1627077853
San Francisco,37.7749,-122.4194,101.37,67,19,3.0,US,1627077493
Los Llanos de Aridane,28.6585,-17.9182,69.55,90,0,17.27,ES,1627077580
Tete,-16.1564,33.5867,67.57,66,66,11.99,MZ,1627077671
Green River,41.5286,-109.4662,90.0,29,73,3.0,US,1627077839
Sept-Îles,50.2001,-66.3821,59.25,84,100,3.65,CA,1627077854
Vrede,-27.4257,29.1659,31.15,39,0,5.84,ZA,1627077855
Houma,29.5958,-90.7195,95.0,67,40,11.5,US,1627077855
Oktyabr'skoye,43.0645,44.7417,62.74,100,100,6.71,RU,1627077855
Bridgewater,44.3835,-64.5155,76.26,94,75,2.3,CA,1627077584
Dongsheng,39.8161,109.9776,67.44,76,14,9.6,CN,1627077856
